[
    {
        "areaCode": "631",
        "city": "Holtsville",
        "county": "Suffolk",
        "daylightSavingsTime": "Y",
        "fips": "36103",
        "latitude": "40.8151",
        "longitude": "73.0455",
        "state": "NY",
        "timeZone": "EST",
        "weatherCode": "USNY0677",
        "zip": "501"
    },
    {
        "areaCode": "631",
        "city": "Holtsville",
        "county": "Suffolk",
        "daylightSavingsTime": "Y",
        "fips": "36103",
        "latitude": "40.8132",
        "longitude": "73.0476",
        "state": "NY",
        "timeZone": "EST",
        "weatherCode": "USNY0677",
        "zip": "544"
    },
    {
        "areaCode": "787",
        "city": "Adjuntas",
        "county": "Adjuntas",
        "daylightSavingsTime": "N",
        "fips": "72001",
        "latitude": "18.1642",
        "longitude": "66.7227",
        "state": "PR",
        "timeZone": "EST+1",
        "weatherCode": null,
        "zip": "601"
    },
    {
        "areaCode": "787",
        "city": "Aguada",
        "county": "Aguada",
        "daylightSavingsTime": "N",
        "fips": "72003",
        "latitude": "18.3974",
        "longitude": "67.1679",
        "state": "PR",
        "timeZone": "EST+1",
        "weatherCode": null,
        "zip": "602"
    },
    {
        "areaCode": "787",
        "city": "Aguadilla",
        "county": "Aguadilla",
        "daylightSavingsTime": "N",
        "fips": "72005",
        "latitude": "18.4409",
        "longitude": "67.1508",
        "state": "PR",
        "timeZone": "EST+1",
        "weatherCode": null,
        "zip": "603"
    },
    {
        "areaCode": "787",
        "city": "Aguadilla",
        "county": "Aguadilla",
        "daylightSavingsTime": "N",
        "fips": "72005",
        "latitude": "18.4295",
        "longitude": "67.1547",
        "state": "PR",
        "timeZone": "EST+1",
        "weatherCode": null,
        "zip": "604"
    },
    {
        "areaCode": "787",
        "city": "Aguadilla",
        "county": "Aguadilla",
        "daylightSavingsTime": "N",
        "fips": "72005",
        "latitude": "18.4289",
        "longitude": "67.1538",
        "state": "PR",
        "timeZone": "EST+1",
        "weatherCode": null,
        "zip": "605"
    },
    {
        "areaCode": "787",
        "city": "Maricao",
        "county": "Maricao",
        "daylightSavingsTime": "N",
        "fips": "72093",
        "latitude": "18.1825",
        "longitude": "66.9805",
        "state": "PR",
        "timeZone": "EST+1",
        "weatherCode": null,
        "zip": "606"
    },
    {
        "areaCode": "787",
        "city": "Anasco",
        "county": "Anasco",
        "daylightSavingsTime": "N",
        "fips": "72011",
        "latitude": "18.2859",
        "longitude": "67.1412",
        "state": "PR",
        "timeZone": "EST+1",
        "weatherCode": null,
        "zip": "610"
    },
    {
        "areaCode": "787",
        "city": "Angeles",
        "county": "Utuado",
        "daylightSavingsTime": "N",
        "fips": "72141",
        "latitude": "18.2856",
        "longitude": "66.9698",
        "state": "PR",
        "timeZone": "EST+1",
        "weatherCode": null,
        "zip": "611"
    },
    {
        "areaCode": "787",
        "city": "Arecibo",
        "county": "Arecibo",
        "daylightSavingsTime": "N",
        "fips": "72013",
        "latitude": "18.4739",
        "longitude": "66.7295",
        "state": "PR",
        "timeZone": "EST+1",
        "weatherCode": null,
        "zip": "612"
    },
    {
        "areaCode": "787",
        "city": "Arecibo",
        "county": "Arecibo",
        "daylightSavingsTime": "N",
        "fips": "72013",
        "latitude": "18.4748",
        "longitude": "66.7215",
        "state": "PR",
        "timeZone": "EST+1",
        "weatherCode": null,
        "zip": "613"
    },
    {
        "areaCode": "787",
        "city": "Arecibo",
        "county": "Arecibo",
        "daylightSavingsTime": "N",
        "fips": "72013",
        "latitude": "18.4567",
        "longitude": "66.7358",
        "state": "PR",
        "timeZone": "EST+1",
        "weatherCode": null,
        "zip": "614"
    },
    {
        "areaCode": "787",
        "city": "Bajadero",
        "county": "Arecibo",
        "daylightSavingsTime": "N",
        "fips": "72013",
        "latitude": "18.4287",
        "longitude": "66.6836",
        "state": "PR",
        "timeZone": "EST+1",
        "weatherCode": null,
        "zip": "616"
    },
    {
        "areaCode": "787",
        "city": "Barceloneta",
        "county": "Barceloneta",
        "daylightSavingsTime": "N",
        "fips": "72017",
        "latitude": "18.4548",
        "longitude": "66.5389",
        "state": "PR",
        "timeZone": "EST+1",
        "weatherCode": null,
        "zip": "617"
    },
    {
        "areaCode": "787",
        "city": "Boqueron",
        "county": "Cabo Rojo",
        "daylightSavingsTime": "N",
        "fips": "72023",
        "latitude": "18.0265",
        "longitude": "67.1727",
        "state": "PR",
        "timeZone": "EST+1",
        "weatherCode": null,
        "zip": "622"
    },
    {
        "areaCode": "787",
        "city": "Cabo Rojo",
        "county": "Cabo Rojo",
        "daylightSavingsTime": "N",
        "fips": "72023",
        "latitude": "18.0849",
        "longitude": "67.1633",
        "state": "PR",
        "timeZone": "EST+1",
        "weatherCode": null,
        "zip": "623"
    },
    {
        "areaCode": "787",
        "city": "Penuelas",
        "county": "Penuelas",
        "daylightSavingsTime": "N",
        "fips": "72111",
        "latitude": "18.0112",
        "longitude": "66.3514",
        "state": "PR",
        "timeZone": "EST+1",
        "weatherCode": null,
        "zip": "624"
    },
    {
        "areaCode": "787",
        "city": "Camuy",
        "county": "Camuy",
        "daylightSavingsTime": "N",
        "fips": "72027",
        "latitude": "18.4865",
        "longitude": "66.8455",
        "state": "PR",
        "timeZone": "EST+1",
        "weatherCode": null,
        "zip": "627"
    },
    {
        "areaCode": "787",
        "city": "Castaner",
        "county": "Lares",
        "daylightSavingsTime": "N",
        "fips": "72081",
        "latitude": "18.1639",
        "longitude": "66.7245",
        "state": "PR",
        "timeZone": "EST+1",
        "weatherCode": null,
        "zip": "631"
    },
    {
        "areaCode": "787",
        "city": "Rosario",
        "county": "San German",
        "daylightSavingsTime": "N",
        "fips": "72125",
        "latitude": "18.1647",
        "longitude": "67.0797",
        "state": "PR",
        "timeZone": "EST+1",
        "weatherCode": null,
        "zip": "636"
    },
    {
        "areaCode": "401",
        "city": "Albion",
        "county": "Providence",
        "daylightSavingsTime": "Y",
        "fips": "44007",
        "latitude": "41.9514",
        "longitude": "71.4551",
        "state": "RI",
        "timeZone": "EST",
        "weatherCode": "USRI0002",
        "zip": "2802"
    },
    {
        "areaCode": "401",
        "city": "Ashaway",
        "county": "Washington",
        "daylightSavingsTime": "Y",
        "fips": "44009",
        "latitude": "41.4382",
        "longitude": "71.7682",
        "state": "RI",
        "timeZone": "EST",
        "weatherCode": "USRI0003",
        "zip": "2804"
    },
    {
        "areaCode": "401",
        "city": "Barrington",
        "county": "Bristol",
        "daylightSavingsTime": "Y",
        "fips": "44001",
        "latitude": "41.7391",
        "longitude": "71.322",
        "state": "RI",
        "timeZone": "EST",
        "weatherCode": "USRI0004",
        "zip": "2806"
    },
    {
        "areaCode": "401",
        "city": "Block Island",
        "county": "Washington",
        "daylightSavingsTime": "Y",
        "fips": "44009",
        "latitude": "41.1768",
        "longitude": "71.5785",
        "state": "RI",
        "timeZone": "EST",
        "weatherCode": "USRI0005",
        "zip": "2807"
    },
    {
        "areaCode": "401",
        "city": "Bradford",
        "county": "Washington",
        "daylightSavingsTime": "Y",
        "fips": "44009",
        "latitude": "41.4008",
        "longitude": "71.7509",
        "state": "RI",
        "timeZone": "EST",
        "weatherCode": "USRI0006",
        "zip": "2808"
    },
    {
        "areaCode": "401",
        "city": "Bristol",
        "county": "Bristol",
        "daylightSavingsTime": "Y",
        "fips": "44001",
        "latitude": "41.6821",
        "longitude": "71.2695",
        "state": "RI",
        "timeZone": "EST",
        "weatherCode": "USRI0007",
        "zip": "2809"
    },
    {
        "areaCode": "401",
        "city": "Carolina",
        "county": "Washington",
        "daylightSavingsTime": "Y",
        "fips": "44009",
        "latitude": "41.4755",
        "longitude": "71.6599",
        "state": "RI",
        "timeZone": "EST",
        "weatherCode": "USRI0008",
        "zip": "2812"
    },
    {
        "areaCode": "401",
        "city": "Charlestown",
        "county": "Washington",
        "daylightSavingsTime": "Y",
        "fips": "44009",
        "latitude": "41.401",
        "longitude": "71.6697",
        "state": "RI",
        "timeZone": "EST",
        "weatherCode": "USRI0010",
        "zip": "2813"
    },
    {
        "areaCode": "401",
        "city": "Chepachet",
        "county": "Providence",
        "daylightSavingsTime": "Y",
        "fips": "44007",
        "latitude": "41.904",
        "longitude": "71.7093",
        "state": "RI",
        "timeZone": "EST",
        "weatherCode": "USRI0011",
        "zip": "2814"
    },
    {
        "areaCode": "401",
        "city": "Clayville",
        "county": "Providence",
        "daylightSavingsTime": "Y",
        "fips": "44007",
        "latitude": "41.77",
        "longitude": "71.6581",
        "state": "RI",
        "timeZone": "EST",
        "weatherCode": "USRI0012",
        "zip": "2815"
    },
    {
        "areaCode": "401",
        "city": "Coventry",
        "county": "Kent",
        "daylightSavingsTime": "Y",
        "fips": "44003",
        "latitude": "41.6899",
        "longitude": "71.6207",
        "state": "RI",
        "timeZone": "EST",
        "weatherCode": "USRI0013",
        "zip": "2816"
    },
    {
        "areaCode": "401",
        "city": "West Greenwich",
        "county": "Kent",
        "daylightSavingsTime": "Y",
        "fips": "44003",
        "latitude": "41.6284",
        "longitude": "71.6677",
        "state": "RI",
        "timeZone": "EST",
        "weatherCode": "USRI0064",
        "zip": "2817"
    },
    {
        "areaCode": "401",
        "city": "East Greenwich",
        "county": "Kent",
        "daylightSavingsTime": "Y",
        "fips": "44003",
        "latitude": "41.6429",
        "longitude": "71.4939",
        "state": "RI",
        "timeZone": "EST",
        "weatherCode": "USRI0016",
        "zip": "2818"
    },
    {
        "areaCode": "401",
        "city": "Exeter",
        "county": "Washington",
        "daylightSavingsTime": "Y",
        "fips": "44009",
        "latitude": "41.5683",
        "longitude": "71.6387",
        "state": "RI",
        "timeZone": "EST",
        "weatherCode": "USRI0018",
        "zip": "2822"
    },
    {
        "areaCode": "401",
        "city": "Fiskeville",
        "county": "Providence",
        "daylightSavingsTime": "Y",
        "fips": "44007",
        "latitude": "41.7345",
        "longitude": "71.5488",
        "state": "RI",
        "timeZone": "EST",
        "weatherCode": "USRI0019",
        "zip": "2823"
    },
    {
        "areaCode": "401",
        "city": "Forestdale",
        "county": "Providence",
        "daylightSavingsTime": "Y",
        "fips": "44007",
        "latitude": "41.9458",
        "longitude": "71.7004",
        "state": "RI",
        "timeZone": "EST",
        "weatherCode": "USRI0020",
        "zip": "2824"
    }
]
